ID,NAME,BRANCH,ADDRESS,TEL,LAT,LNG
,臺北運務段,,新北市板橋區縣民大道2段7號1A樓,02-89691108,25.0140513,121.463815
,臺中運務段,,彰化縣彰化市西興東路18號3樓,04-7623320,24.0802271,120.5361089
,高雄運務段,,高雄市左營區站前路5號,07-5810186,22.6883126,120.3058657
,花蓮運務段,,花蓮縣花蓮市富裕二街32號,03-8563064,23.9939887,121.6000681
,宜蘭運務段,,宜蘭縣宜蘭市林森路105號,03-9372973,24.7543093,121.7589528